City_ID,City,Lat,Lng,Max Temp,Humidity,Cloudiness,Wind Speed,Country,Date
0,port moresby,-9.4431,147.1797,26.33,79,99,1.34,PG,1706556608
1,college,64.8569,-147.8028,-30.03,66,100,0.0,US,1706556608
2,egilsstadir,65.2653,-14.3948,4.95,70,40,8.23,IS,1706556608
3,nikolayevsk-on-amure,53.1406,140.73,-19.42,100,95,1.19,RU,1706556609
4,tabou,4.423,-7.3528,27.32,80,3,4.42,CI,1706556609
5,praia,14.9215,-23.5087,25.3,57,51,7.72,CV,1706556374
6,constantia,44.1833,28.65,2.61,78,100,9.27,RO,1706556606
7,grytviken,-54.2811,-36.5092,8.69,61,89,4.12,GS,1706556610
8,atafu village,-8.5421,-172.5159,29.18,70,88,2.5,TK,1706556376
9,albany,42.6001,-73.9662,1.56,80,100,3.11,US,1706556593
10,ribeira grande,38.5167,-28.7,17.22,88,40,8.75,PT,1706556611
11,avarua,-21.2078,-159.775,26.03,100,75,3.6,CK,1706556611
12,santa vitoria do palmar,-33.5189,-53.3681,25.32,54,30,4.93,BR,1706556457
13,adamstown,-25.066,-130.1015,24.58,77,100,5.07,PN,1706556611
14,ushuaia,-54.8,-68.3,13.79,50,0,10.8,AR,1706556611
15,lata,40.1629,-8.3327,16.01,77,82,2.1,PT,1706556687
16,port-aux-francais,-49.35,70.2167,3.89,71,99,16.63,TF,1706556687
17,bikenibeu village,1.3673,173.1241,26.98,89,75,1.54,KI,1706556687
18,bilibino,68.0546,166.4372,-32.51,99,100,1.05,RU,1706556687
19,waitangi,-43.9535,-176.5597,17.12,98,49,1.34,NZ,1706556687
20,ciudad lazaro cardenas,17.9583,-102.2,28.62,59,100,2.84,MX,1706556688
21,fort bragg,35.139,-79.006,15.08,41,0,5.66,US,1706556688
22,amlapura,-8.45,115.6167,25.38,86,68,1.32,ID,1706556688
23,ilomantsi,62.6716,30.9328,-0.17,89,43,5.4,FI,1706556503
24,enewetak,11.3474,162.3373,25.68,61,71,3.41,MH,1706556688
25,le treport,50.0598,1.3758,10.0,84,100,6.21,FR,1706556688
26,puerto natales,-51.7236,-72.4875,18.25,52,40,7.72,CL,1706556688
27,papatowai,-46.5619,169.4708,16.18,69,100,2.05,NZ,1706556689
28,wailua homesteads,22.0669,-159.378,23.44,88,40,7.2,US,1706556689
29,korsakov,46.6328,142.7813,-4.09,94,100,3.09,RU,1706556689
30,hohhot,40.8106,111.6522,-13.84,72,0,2.0,CN,1706556689
31,vila velha,-20.3297,-40.2925,30.97,79,20,9.26,BR,1706556689
32,yanam,16.7333,82.2167,18.96,83,59,0.52,IN,1706556689
33,gorodishche,48.8045,44.4744,-9.51,85,0,2.0,RU,1706556690
34,nova sintra,14.8667,-24.7167,21.28,67,74,8.63,CV,1706556690
35,castro,-24.7911,-50.0119,22.42,64,59,3.22,BR,1706556690
36,west island,-12.1568,96.8225,24.99,78,28,2.06,CC,1706556690
37,hawaiian paradise park,19.5933,-154.9731,28.83,69,0,1.54,US,1706556690
38,edinburgh of the seven seas,-37.0676,-12.3116,16.59,71,41,9.34,SH,1706556690
39,yellowknife,62.456,-114.3525,-3.71,100,100,8.75,CA,1706556690
40,tiksi,71.6872,128.8694,-26.58,98,88,3.33,RU,1706556690
41,cabo san lucas,22.8909,-109.9124,30.34,60,75,5.36,MX,1706556623
42,isafjordur,66.0755,-23.124,-0.53,58,63,12.85,IS,1706556691
43,port mathurin,-19.6833,63.4167,27.6,82,99,9.81,MU,1706556691
44,masterton,-40.9597,175.6575,18.27,71,48,2.83,NZ,1706556691
45,puerto armuelles,8.2833,-82.8667,34.99,64,100,1.34,PA,1706556618
46,aasiaat,68.7098,-52.8699,-27.37,97,100,1.17,GL,1706556691
47,blackmans bay,-43.0167,147.3167,9.74,84,1,0.89,AU,1706556691
48,copiapo,-27.3667,-70.3333,21.83,37,0,4.37,CL,1706556691
49,la ronge,55.1001,-105.2842,4.14,56,20,3.09,CA,1706556692
50,new norfolk,-42.7826,147.0587,10.4,92,7,1.38,AU,1706556692
51,arrah,25.5667,84.6667,12.94,50,0,1.52,IN,1706556692
52,castillos,-34.1667,-53.8333,24.59,53,39,4.46,UY,1706556692
53,tezontepec,19.8833,-98.8167,17.47,26,100,3.27,MX,1706556692
54,mabaruma,8.2,-59.7833,29.51,60,60,3.49,GY,1706556692
55,sao miguel do araguaia,-13.275,-50.1628,27.28,77,100,1.35,BR,1706556693
56,zhanaozen,43.3,52.8,-4.11,89,88,3.97,KZ,1706556693
57,port elizabeth,-33.918,25.5701,22.28,90,20,13.89,ZA,1706556515
58,palikir - national government center,6.9248,158.1611,25.41,83,100,2.57,FM,1706556693
59,dudinka,69.4058,86.1778,-15.18,83,100,8.05,RU,1706556516
60,vernon,50.2581,-119.2691,7.39,94,100,1.54,CA,1706556693
61,port alfred,-33.5906,26.891,26.01,78,57,0.73,ZA,1706556693
62,cole harbour,44.6724,-63.4751,-1.13,88,100,7.15,CA,1706556693
63,tazovsky,67.4667,78.7,-22.69,91,67,4.42,RU,1706556694
64,wanning,18.8003,110.3967,20.75,91,95,1.62,CN,1706556694
65,yemetsk,63.4721,41.7941,1.32,90,100,4.92,RU,1706556694
66,yinchuan,38.4681,106.2731,-2.32,42,100,1.13,CN,1706556694
67,grafton,42.207,-71.6856,1.54,91,100,5.14,US,1706556694
68,barra dos coqueiros,-10.9089,-37.0386,30.01,70,0,7.2,BR,1706556694
69,luoyang,34.6836,112.4536,1.78,68,9,2.85,CN,1706556694
70,aripuana,-9.1667,-60.6333,30.09,67,91,1.13,BR,1706556694
71,ketchikan,55.3422,-131.6461,10.99,81,100,10.29,US,1706556695
72,delmas,18.5447,-72.3028,27.4,65,75,5.66,HT,1706556695
73,maicao,11.3832,-72.2432,32.23,44,17,4.78,CO,1706556695
74,lebu,-37.6167,-73.65,17.91,61,55,5.38,CL,1706556695
75,center,31.5107,-96.4247,21.0,48,0,5.14,US,1706556695
76,twon-brass,4.3151,6.2418,27.16,78,14,4.99,NG,1706556695
77,sandy point town,17.35,-62.8333,28.31,74,2,3.54,KN,1706556695
78,bethel,41.3712,-73.414,2.9,74,100,5.14,US,1706556695
79,rosetta,31.4044,30.4164,13.1,54,95,10.39,EG,1706556696
80,ghat,24.9647,10.1728,14.28,44,3,3.16,LY,1706556696
81,puerto ayora,-0.7393,-90.3518,31.98,75,100,5.05,EC,1706556696
82,qaqortoq,60.7167,-46.0333,-23.82,77,11,2.75,GL,1706556696
83,badger,64.8,-147.5333,-24.37,68,100,0.0,US,1706556696
84,international falls,48.6011,-93.411,2.3,80,100,4.63,US,1706556606
85,iskateley,67.6803,53.1512,-5.02,91,100,11.63,RU,1706556697
86,bodo,67.28,14.405,4.32,83,75,17.49,NO,1706556697
87,udachny,66.4167,112.4,-21.42,76,100,0.95,RU,1706556697
88,thunder bay,48.4001,-89.3168,-1.01,93,100,2.57,CA,1706556608
89,laojunmiao,39.8333,97.7333,-5.54,34,4,2.85,CN,1706556697
90,woodward,36.4337,-99.3904,21.57,24,0,3.6,US,1706556697
91,waingapu,-9.6567,120.2641,25.86,82,100,2.58,ID,1706556697
92,katlenburg-lindau,51.6833,10.1,6.74,86,100,0.45,DE,1706556697
93,utrik,11.2278,169.8474,26.03,69,100,5.36,MH,1706556697
94,malanje,-9.5402,16.341,19.41,96,97,0.92,AO,1706556698
95,troitsko-pechorsk,62.7084,56.1964,-14.91,98,100,3.37,RU,1706556698
96,tanjung pandan,-2.75,107.65,25.78,89,98,3.49,ID,1706556698
97,iqaluit,63.7506,-68.5145,-30.73,67,100,0.0,CA,1706556569
98,chonchi,-42.6128,-73.8092,20.56,43,98,0.98,CL,1706556698
99,hermanus,-34.4187,19.2345,22.11,74,97,8.73,ZA,1706556698
100,bredasdorp,-34.5322,20.0403,24.04,51,65,7.04,ZA,1706556698
101,shibganj,24.6829,88.1598,14.24,44,0,1.22,BD,1706556698
102,aykhal,66.0,111.5,-21.47,100,100,1.2,RU,1706556699
103,heihe,50.2441,127.4902,-29.68,98,22,1.23,CN,1706556699
104,brigantine,39.4101,-74.3646,5.57,77,100,6.69,US,1706556526
105,kodiak,57.79,-152.4072,-13.27,66,0,5.14,US,1706556699
106,novofedorivka,46.1713,32.3178,0.81,76,5,6.15,UA,1706556699
107,luderitz,-26.6481,15.1594,18.55,74,99,3.3,NA,1706556699
108,colonia,50.9333,6.95,11.01,81,0,4.12,DE,1706556654
109,coari,-4.085,-63.1414,29.32,82,97,1.59,BR,1706556699
110,santiago de cao,-7.9589,-79.2392,26.07,78,75,3.6,PE,1706556699
111,kesinga,20.2,83.2333,17.07,34,69,1.2,IN,1706556700
112,la passe,45.5549,-0.8967,12.21,88,100,5.11,FR,1706556700
113,pacasmayo,-7.4006,-79.5714,26.65,73,99,6.23,PE,1706556700
114,tura,25.5198,90.2201,12.47,61,0,1.35,IN,1706556700
115,fallon,39.4735,-118.7774,14.95,65,40,2.06,US,1706556505
116,san antonio de pale,-1.4014,5.6325,27.58,81,87,3.23,GQ,1706556700
117,hasaki,35.7333,140.8333,4.05,51,51,2.02,JP,1706556700
118,talcahuano,-36.7167,-73.1167,25.82,38,0,3.09,CL,1706556700
119,ar ruways,24.1103,52.7306,19.73,65,86,2.23,AE,1706556701
120,talnakh,69.4865,88.3972,-16.55,91,100,3.94,RU,1706556701
121,nieuw amsterdam,5.8833,-55.0833,29.09,78,40,3.09,SR,1706556701
122,jamestown,42.097,-79.2353,1.77,96,100,4.63,US,1706556492
123,panjakent,39.4952,67.6093,2.04,97,99,2.21,TJ,1706556701
124,atar,20.5169,-13.0499,21.51,11,0,3.82,MR,1706556701
125,sinabang,2.4803,96.3801,26.36,83,38,1.39,ID,1706556701
126,lompoc,34.6391,-120.4579,24.41,41,0,3.09,US,1706556504
127,longyearbyen,78.2186,15.6401,-3.09,86,75,8.23,SJ,1706556702
128,elburn,41.8923,-88.4723,4.47,91,100,6.17,US,1706556702
129,tolanaro,-25.0319,46.9987,24.04,83,75,5.14,MG,1706556702
130,vilyuchinsk,52.9306,158.4028,-14.48,88,89,3.65,RU,1706556702
131,hilo,19.7297,-155.09,28.95,56,0,1.54,US,1706556702
132,hadibu,12.65,54.0333,23.71,72,64,3.29,YE,1706556702
133,nizhnedevitsk,51.5419,38.3657,-10.66,97,94,3.15,RU,1706556702
134,katsuura,35.1333,140.3,9.54,57,100,1.14,JP,1706556702
135,puerto el triunfo,13.2833,-88.55,38.48,51,98,2.13,SV,1706556703
136,pont rouge,48.8833,-72.0825,-8.84,81,94,3.04,CA,1706556703
137,nadur,36.0378,14.2942,11.99,71,95,1.99,MT,1706556703
138,hamilton,39.1834,-84.5333,3.21,81,100,3.09,US,1706556687
139,olonkinbyen,70.9221,-8.7187,-5.74,55,100,3.69,SJ,1706556703
140,nemuro,43.3236,145.575,-0.93,85,12,2.68,JP,1706556703
141,al kharijah,25.4514,30.5464,13.46,44,0,4.37,EG,1706556703
142,codrington,-38.2667,141.9667,12.0,89,0,2.92,AU,1706556704
143,ust-nera,64.5667,143.2,-36.76,97,99,1.95,RU,1706556704
144,russi,44.3725,12.0322,5.32,100,100,0.0,IT,1706556704
145,urangan,-25.3,152.9,26.22,97,100,2.24,AU,1706556704
146,jayapura,-2.5333,140.7,23.66,88,100,1.72,ID,1706556666
147,carnarvon,-24.8667,113.6333,23.13,77,0,9.47,AU,1706556704
148,kidal,18.4411,1.4078,21.15,14,15,5.03,ML,1706556704
149,antonio enes,-16.2325,39.9086,25.33,76,0,2.46,MZ,1706556704
150,novodvinsk,64.4165,40.8122,1.86,92,100,5.93,RU,1706556704
151,wotho,10.1657,166.0102,26.62,75,97,5.15,MH,1706556705
152,siwa oasis,29.2041,25.5195,13.07,48,85,4.36,EG,1706556705
153,kirensk,57.7853,108.1119,-38.91,100,68,0.45,RU,1706556705
154,road town,18.4167,-64.6167,28.02,65,20,4.63,VG,1706556649
155,prince rupert,54.3161,-130.3201,10.05,81,100,17.49,CA,1706556705
156,abepura,-2.6333,140.5833,23.45,100,20,1.03,ID,1706556705
157,anadyr,64.75,177.4833,-33.72,75,75,3.0,RU,1706556705
158,kristiansund,63.1115,7.732,6.36,56,0,6.69,NO,1706556706
159,mount pearl,47.5166,-52.7813,-2.25,95,100,3.6,CA,1706556706
160,georgetown,5.4112,100.3354,27.75,87,20,4.12,MY,1706556476
161,petropavlovsk-kamchatsky,53.0452,158.6483,-15.3,93,0,5.0,RU,1706556706
162,viedma,-40.8135,-62.9967,29.75,40,0,6.03,AR,1706556706
163,ilulissat,69.2167,-51.1,-21.99,71,75,2.06,GL,1706556706
164,cannonvale,-20.2833,148.7,28.66,89,100,2.34,AU,1706556706
165,kushk,33.2957,61.9522,9.32,39,2,2.07,AF,1706556706
166,ulanhot,46.0833,122.0833,-21.64,83,88,0.99,CN,1706556706
167,weno,7.4515,151.8468,25.97,89,100,3.09,FM,1706556707
168,magadan,59.5667,150.8,-19.6,72,63,3.73,RU,1706556707
169,mount gambier,-37.8333,140.7667,11.25,93,8,2.35,AU,1706556667
170,santa ana de yacuma,-13.75,-65.4333,32.97,66,75,2.06,BO,1706556707
171,portage la prairie,49.9728,-98.2926,4.05,67,75,7.72,CA,1706556707
172,salakhid,32.8727,36.5727,6.38,80,99,3.29,SY,1706556707
173,rosporden,47.9667,-3.8333,12.49,91,97,6.08,FR,1706556707
174,klyuchi,52.2667,79.1667,-18.44,97,73,2.81,RU,1706556708
175,torres,-29.3353,-49.7269,27.15,75,90,2.36,BR,1706556708
176,alaghsas,17.0187,8.0168,19.98,17,39,8.19,NE,1706556708
177,phan rang-thap cham,11.5667,108.9833,20.21,88,79,3.07,VN,1706556708
178,balikesir,39.75,28.0,1.98,87,75,5.14,TR,1706556708
179,severobaykal'sk,55.65,109.3167,-26.39,85,21,2.15,RU,1706556708
180,stanley,54.868,-1.6985,5.71,93,100,5.85,GB,1706556479
181,cabedelo,-6.9811,-34.8339,31.37,73,14,6.35,BR,1706556708
182,choibalsan,48.0667,114.5,-29.79,100,100,1.67,MN,1706556708
183,bochum,51.4833,7.2167,10.76,66,100,0.45,DE,1706556709
184,thongwa,16.7619,96.5278,25.09,69,3,2.39,MM,1706556709
185,akureyri,65.6835,-18.0878,3.96,65,75,7.2,IS,1706556709
186,maragogi,-9.0122,-35.2225,28.17,69,14,4.48,BR,1706556709
187,traralgon,-38.1833,146.5333,12.86,97,19,0.23,AU,1706556656
188,flying fish cove,-10.4217,105.6791,24.82,100,40,1.54,CX,1706556709
189,tripoli,32.8752,13.1875,14.78,58,61,5.36,LY,1706556709
190,poyarkovo,49.6,128.6833,-32.11,100,97,1.26,RU,1706556710
191,karasuk,53.7377,78.0403,-15.65,96,100,4.18,RU,1706556710
192,pimentel,-6.8367,-79.9342,30.16,54,75,6.69,PE,1706556710
193,wlodawa,51.55,23.55,0.12,82,55,3.4,PL,1706556710
194,mohr,54.3528,9.7167,6.97,92,75,2.57,DE,1706556710
195,vanimo,-2.6741,141.3028,25.43,88,100,1.16,PG,1706556711
196,antigonish,45.6169,-61.9986,-1.36,96,100,3.58,CA,1706556711
197,kandi,11.1342,2.9386,27.16,16,98,2.24,BJ,1706556711
198,manay,7.215,126.5397,24.96,97,100,3.76,PH,1706556711
199,yonggang-up,38.8561,125.4244,-6.12,91,5,0.86,KP,1706556711
200,ilebo,-4.3167,20.5833,22.82,96,100,0.83,CD,1706556711
201,dakhla,23.6848,-15.958,22.01,43,0,6.17,EH,1706556711
202,pangoa,-12.1167,-73.0,25.04,94,100,1.23,PE,1706556711
203,sao joao da barra,-21.6403,-41.0511,29.05,92,74,2.69,BR,1706556711
204,camana,-16.6228,-72.7111,25.38,74,32,3.82,PE,1706556712
205,ta`u,-14.2336,-169.5144,28.55,76,100,3.99,AS,1706556712
206,ad dilam,23.9915,47.1627,20.23,44,100,5.38,SA,1706556712
207,vadso,70.0744,29.7487,2.49,69,33,19.55,NO,1706556712
208,sitka,57.0531,-135.33,9.94,71,100,18.52,US,1706556712
209,nar'yan-mar,67.6713,53.087,-4.89,91,100,11.55,RU,1706556712
210,santa cruz cabralia,-16.2781,-39.0247,29.13,74,40,8.75,BR,1706556448
211,invercargill,-46.4,168.35,13.9,89,61,1.34,NZ,1706556712
212,homer,59.6425,-151.5483,-11.06,81,100,10.28,US,1706556713
213,remire-montjoly,4.9167,-52.2667,25.02,100,100,3.6,GF,1706556713
214,kuhmo,64.1333,29.5167,0.91,76,46,7.66,FI,1706556713
215,vorgashor,67.5833,63.95,-16.76,93,65,4.46,RU,1706556713
216,jakobstad,63.6749,22.7026,4.09,63,49,1.34,FI,1706556713
217,sao vicente,-23.9631,-46.3919,34.1,57,40,4.12,BR,1706556713
218,kapuskasing,49.4169,-82.4331,0.0,86,100,5.14,CA,1706556713
219,ancud,-41.8697,-73.8203,17.06,58,98,2.7,CL,1706556707
220,malyye derbety,47.9547,44.6808,-6.73,93,36,2.36,RU,1706556714
221,huarmey,-10.0681,-78.1522,26.76,73,100,5.2,PE,1706556714
222,qui nhon,13.7667,109.2333,20.15,90,60,3.04,VN,1706556714
223,qarazhal,48.0078,70.7903,-14.84,84,97,2.83,KZ,1706556714
224,taulaga,-11.0553,-171.0883,29.3,69,99,1.87,AS,1706556714
225,punta arenas,-53.15,-70.9167,16.06,39,0,8.75,CL,1706556714
226,whitehorse,60.7161,-135.0538,4.43,81,75,10.8,CA,1706556714
227,vyyezdnoye,55.3815,43.7864,-4.9,93,100,5.82,RU,1706556714
228,gulf shores,30.246,-87.7008,16.14,50,0,3.6,US,1706556712
229,quellon,-43.1167,-73.6167,16.52,57,95,3.5,CL,1706556715
230,alofi,-19.0595,-169.9187,27.94,83,100,2.57,NU,1706556576
231,el granada,37.5027,-122.4694,22.73,70,0,3.09,US,1706556715
232,jwaneng,-24.6004,24.7303,25.39,45,7,3.5,BW,1706556715
233,luwero,0.8492,32.4731,20.25,77,12,0.41,UG,1706556715
234,berezovyy,51.6667,135.7,-20.41,98,87,1.48,RU,1706556715
235,tera,14.0078,0.7531,24.9,13,5,4.51,NE,1706556715
236,saint-pierre,-21.3393,55.4781,24.82,94,75,2.06,RE,1706556715
237,fada,9.5667,8.3,23.48,20,34,2.7,NG,1706556715
238,margaret river,-33.95,115.0667,11.59,89,4,4.49,AU,1706556716
239,yueyang,29.3333,113.0919,6.8,90,94,1.95,CN,1706556716
240,san agustin de valle fertil,-30.6335,-67.4682,35.54,20,0,7.38,AR,1706556716
241,newman,37.3138,-121.0208,19.57,78,0,2.24,US,1706556716
242,shetpe,44.1667,52.1167,-5.87,84,97,3.41,KZ,1706556716
243,imola,44.3523,11.7158,5.96,67,6,1.11,IT,1706556454
244,neryungri,56.6709,124.6491,-30.75,98,100,1.88,RU,1706556716
245,susuman,62.7833,148.1667,-33.9,94,100,0.45,RU,1706556716
246,madang,-5.2246,145.7966,24.85,92,100,2.99,PG,1706556716
247,nchelenge,-9.3451,28.734,21.92,86,100,2.14,ZM,1706556717
248,afaahiti,-17.75,-149.2833,28.93,78,99,1.45,PF,1706556717
249,las tablas,7.7667,-80.2833,30.35,57,100,6.78,PA,1706556717
250,saipan,15.1355,145.701,24.39,73,75,5.66,MP,1706556717
251,nizao,18.25,-70.2,30.04,67,18,4.57,DO,1706556717
252,tejen,37.3834,60.5054,4.68,89,95,2.01,TM,1706556717
253,quesnel,52.9999,-122.5029,10.28,66,100,5.66,CA,1706556717
254,praia da vitoria,38.7333,-27.0667,16.53,88,20,4.95,PT,1706556718
255,horta,38.5333,-28.6333,16.8,90,40,8.75,PT,1706556718
256,kilinochchi,9.3961,80.3982,24.77,82,100,3.66,LK,1706556718
257,santa sylvina,-27.8326,-61.1375,36.14,18,83,2.03,AR,1706556718
258,fale old settlement,-9.3852,-171.2468,29.17,72,93,2.27,TK,1706556718
259,sint michiel liber,12.15,-68.9833,28.9,74,20,6.17,CW,1706556718
260,tralee,52.2704,-9.7026,3.86,77,7,2.66,IE,1706556718
261,nema,57.5067,50.5011,-5.76,96,100,3.5,RU,1706556718
262,dowlatabad,32.7998,51.6955,0.82,55,0,2.06,IR,1706556718
263,livadeia,38.435,22.8739,6.56,85,88,3.73,GR,1706556719
264,santa maria,-29.6842,-53.8069,29.61,51,40,1.54,BR,1706556618
265,lihue,21.9789,-159.3672,23.77,85,40,7.2,US,1706556680
266,sandnessjoen,66.0217,12.6316,5.29,87,75,6.69,NO,1706556649
267,atlantic,39.4668,-74.6663,5.71,72,100,6.69,US,1706556719
268,altai,46.3722,96.2583,-18.21,55,33,0.42,MN,1706556719
269,uturoa,-16.7333,-151.4333,28.4,77,100,2.49,PF,1706556719
270,rouyn-noranda,48.2398,-79.0288,-3.95,68,75,2.57,CA,1706556492
271,beni khalled,36.6504,10.59,13.86,85,0,2.51,TN,1706556719
272,sharypovo,55.5403,89.2008,-14.86,97,100,0.89,RU,1706556720
273,kidodi,-7.6036,37.0044,23.66,96,100,1.56,TZ,1706556720
274,selfoss,63.9331,-20.9971,1.14,85,100,13.03,IS,1706556720
275,port shepstone,-30.7414,30.455,24.41,88,72,9.28,ZA,1706556720
276,port saint john's,-31.6229,29.5448,25.11,90,100,6.37,ZA,1706556720
277,ubinskoye,55.3068,79.6802,-14.28,96,100,3.58,RU,1706556720
278,pombas,17.1503,-25.0201,22.88,71,21,3.98,CV,1706556720
279,plato,9.7903,-74.7824,38.47,27,12,0.74,CO,1706556720
280,hithadhoo,-0.6,73.0833,27.86,75,17,3.08,MV,1706556720
281,morrilton,35.1509,-92.744,16.03,48,0,1.41,US,1706556721
282,bontoc,17.0899,120.978,13.29,97,89,1.66,PH,1706556721
283,vung tau,10.346,107.0843,24.15,80,100,7.75,VN,1706556721
284,nhamunda,-2.1861,-56.7131,33.87,42,43,2.33,BR,1706556721
285,itoman,26.1247,127.6694,17.83,67,100,1.54,JP,1706556721
286,puerto baquerizo moreno,-0.9,-89.6,29.55,74,20,8.23,EC,1706556721
287,nadym,65.5333,72.5167,-20.85,95,25,4.79,RU,1706556721
288,guapo,-16.8306,-49.5319,30.21,36,47,2.13,BR,1706556721
289,chania,35.5122,24.0156,7.78,81,75,6.17,GR,1706556722
290,hornsea,53.9104,-0.1681,12.15,93,100,3.09,GB,1706556722
291,namdrik,5.5994,168.1028,27.11,80,100,5.75,MH,1706556722
292,karratha,-20.7377,116.8463,26.24,73,59,5.89,AU,1706556722
293,mahenge,-8.6833,36.7167,18.42,98,100,0.84,TZ,1706556722
294,jiangyou,31.7667,104.7167,5.52,67,97,1.43,CN,1706556722
295,piton saint-leu,-21.2196,55.3151,24.04,94,75,2.06,RE,1706556722
296,anjiang,27.3194,110.1031,7.15,94,100,0.72,CN,1706556723
297,coquimbo,-29.9533,-71.3436,19.85,82,75,5.66,CL,1706556723
298,suva,-18.1416,178.4415,24.71,94,75,2.06,FJ,1706556569
299,canturay,9.8019,122.4569,23.94,83,100,6.12,PH,1706556723
300,itabira,-19.6192,-43.2269,26.2,75,52,1.8,BR,1706556723
301,chapaev,50.2,51.1667,-16.97,97,5,2.25,KZ,1706556723
302,buka,40.8108,69.1986,4.79,82,100,2.57,UZ,1706556723
303,tofol,5.3248,163.0078,27.41,72,100,5.55,FM,1706556723
304,tazacorte,28.629,-17.9293,20.64,42,17,3.58,ES,1706556724
305,brush,40.2589,-103.6238,15.62,41,0,4.12,US,1706556724
306,naze,28.3667,129.4833,8.51,65,46,2.53,JP,1706556724
307,kenai,60.5544,-151.2583,-13.81,91,100,1.54,US,1706556724
308,ust'-ilimsk,58.0006,102.6619,-31.54,100,11,0.89,RU,1706556724
309,serdar,38.9764,56.2757,3.23,71,26,2.11,TM,1706556724
310,eldorado at santa fe,35.5264,-105.9347,12.43,37,0,3.09,US,1706556724
311,rakops,-21.0167,24.3333,26.86,52,71,1.58,BW,1706556724
312,howrah,22.5892,88.3103,16.0,82,0,0.0,IN,1706556564
313,ashoknagar kalyangarh,22.8642,88.637,15.95,44,0,2.45,IN,1706556725
314,norilsk,69.3535,88.2027,-16.43,83,100,2.94,RU,1706556725
315,illizi,26.4833,8.4667,15.89,44,2,5.02,DZ,1706556725
316,potchefstroom,-26.7167,27.1,24.38,40,70,0.7,ZA,1706556595
317,jiuquan,39.7432,98.5174,-6.0,33,1,1.78,CN,1706556725
318,zuunmod,47.7069,106.9528,-33.43,99,100,0.64,MN,1706556725
319,igarka,67.4667,86.5833,-22.49,84,90,4.33,RU,1706556725
320,tres arroyos,-38.3739,-60.2798,36.83,17,0,3.09,AR,1706556726
321,vredendal,-31.6683,18.5012,20.55,66,54,2.02,ZA,1706556726
322,richards bay,-28.783,32.0377,24.23,80,19,4.34,ZA,1706556726
323,plettenberg bay,-34.0527,23.3716,19.22,86,47,1.45,ZA,1706556726
324,cill airne,52.05,-9.5167,2.51,87,9,1.8,IE,1706556605
325,bapatla,15.9,80.4667,20.55,77,68,2.72,IN,1706556726
326,goondiwindi,-28.55,150.3167,23.95,92,100,3.71,AU,1706556726
327,zainsk,55.3195,52.0694,-3.45,95,100,4.96,RU,1706556726
328,tsumeb,-19.2333,17.7167,22.89,61,75,11.09,NA,1706556727
329,queenstown,-31.8976,26.8753,24.01,46,94,2.36,ZA,1706556727
330,canmore,51.0834,-115.3521,12.06,97,100,4.12,CA,1706556727
331,quatre cocos,-20.2078,57.7625,26.16,87,4,2.38,MU,1706556727
332,vallenar,-28.5708,-70.7581,25.33,38,0,4.51,CL,1706556727
333,kavaratti,10.5669,72.642,27.74,64,52,2.72,IN,1706556727
334,myeik,12.4333,98.6,24.37,82,46,1.37,MM,1706556727
335,mejit,10.2753,170.8646,25.89,76,100,6.73,MH,1706556728
336,taroa,8.7058,171.2275,26.48,85,97,8.28,MH,1706556728
337,tuban,-6.8976,112.0649,25.44,90,100,2.38,ID,1706556728
338,marquette,46.5333,-87.6335,4.39,68,100,3.58,US,1706556544
339,ambodifotatra,-16.9833,49.85,26.57,81,77,8.85,MG,1706556728
340,rancho santa margarita,33.6409,-117.6031,25.27,33,17,1.79,US,1706556513
341,micheweni,-4.9667,39.8333,27.56,78,100,4.57,TZ,1706556728
342,cambridge,43.3601,-80.3127,3.86,79,100,3.09,CA,1706556442
343,howard springs,-12.497,131.047,26.95,96,100,4.28,AU,1706556728
344,megion,61.0296,76.1136,-18.99,100,96,3.21,RU,1706556729
345,geraldton,-28.7667,114.6,19.23,82,0,4.63,AU,1706556729
346,kone,-21.0595,164.8658,25.27,78,87,0.35,NC,1706556729
347,kongolo,-5.3833,27.0,20.35,97,100,0.62,CD,1706556729
348,kepno,51.2784,17.9891,2.11,75,100,4.02,PL,1706556729
349,puerto santa,-8.9906,-78.6456,25.77,76,100,5.01,PE,1706556729
350,bathurst,-33.4166,149.5806,20.54,88,7,0.89,AU,1706556729
351,gizo,-8.103,156.8419,26.86,83,100,5.76,SB,1706556730
352,east london,-33.0153,27.9116,27.05,76,100,6.72,ZA,1706556457
353,bereznik,62.8551,42.7072,1.13,89,100,4.7,RU,1706556730
354,marsa alam,25.0757,34.8918,18.18,40,0,4.51,EG,1706556730
355,lubang,13.8584,120.124,24.96,75,99,13.22,PH,1706556730
356,xiva,41.3783,60.3639,-0.01,78,100,5.72,UZ,1706556730
357,roccella ionica,38.322,16.4009,9.27,64,8,2.19,IT,1706556730
358,yigo village,13.5361,144.8886,24.3,76,20,8.23,GU,1706556730
359,north bend,43.4065,-124.2243,15.65,88,0,4.12,US,1706556730
360,sterling,39.0062,-77.4286,8.48,61,75,9.26,US,1706556486
361,goure,13.9835,10.2704,20.15,14,8,4.38,NE,1706556731
362,kaspiyskiy,45.3929,47.3707,-4.32,80,97,3.79,RU,1706556731
363,rio grande,-32.035,-52.0986,27.06,71,51,5.16,BR,1706556731
364,medina,24.4686,39.6142,20.24,26,0,3.09,SA,1706556731
365,ambalangoda,6.2355,80.0538,26.05,85,94,3.47,LK,1706556731
366,suntar,62.1444,117.6319,-40.85,100,77,1.42,RU,1706556731
367,sainte-marie,-20.8968,55.5496,26.07,83,0,2.06,RE,1706556731
368,qurayyat,31.3318,37.3428,9.1,71,40,0.0,SA,1706556732
369,kingston,17.997,-76.7936,29.58,66,20,6.17,JM,1706556651
370,lockwood,45.8191,-108.4149,14.8,46,40,7.2,US,1706556732
371,lodja,-3.4833,23.4333,22.98,79,100,1.3,CD,1706556732
372,palmer,42.1584,-72.3287,1.75,78,100,7.2,US,1706556732
373,kruisfontein,-34.0033,24.7314,21.05,86,99,5.12,ZA,1706556732
374,floro,61.5996,5.0328,5.98,81,75,5.14,NO,1706556732
375,back mountain,41.3359,-75.9963,2.51,77,55,5.32,US,1706556732
376,luwuk,-0.9516,122.7875,25.52,82,67,1.64,ID,1706556732
377,papao,-17.75,-149.55,29.82,76,97,0.96,PF,1706556733
378,ondjiva,-17.0667,15.7333,30.02,39,0,1.54,AO,1706556733
379,aral,40.5156,81.2636,-1.58,40,100,1.3,CN,1706556733
380,pierre,44.3683,-100.351,7.7,73,20,6.17,US,1706556448
381,abnub,27.2696,31.1511,14.12,44,3,6.27,EG,1706556733
382,port lincoln,-34.7333,135.8667,17.05,85,77,4.94,AU,1706556733
383,al jawf,29.5,38.75,10.9,48,2,1.85,SA,1706556733
384,galesong,-5.3166,119.3661,24.01,85,100,2.0,ID,1706556733
385,sao joao do piaui,-8.3581,-42.2467,26.06,80,78,1.88,BR,1706556733
386,nagqu,31.5,92.0,-14.51,97,90,1.36,CN,1706556734
387,al quwayrah,29.8004,35.3116,12.0,66,9,2.38,JO,1706556734
388,mil'kovo,55.6078,37.7956,-2.59,93,100,5.78,RU,1706556734
389,sokoni,-6.4333,39.55,27.92,80,96,4.99,TZ,1706556734
390,galle,6.0367,80.217,24.97,88,94,2.55,LK,1706556734
391,goba,7.0167,39.9833,11.68,80,77,1.04,ET,1706556734
392,pea ridge,38.414,-82.3199,5.14,86,100,1.34,US,1706556734
393,necochea,-38.5473,-58.7368,28.35,45,59,9.24,AR,1706556735
394,semera,11.501,41.201,26.08,58,100,7.5,ET,1706556735
395,vytegra,61.0064,36.4481,1.87,84,100,6.71,RU,1706556735
396,vila franca do campo,37.7167,-25.4333,18.27,99,78,8.12,PT,1706556735
397,wewak,-3.5534,143.6268,24.6,90,100,1.7,PG,1706556735
398,ma'rib,15.4591,45.3253,23.28,51,31,2.25,YE,1706556735
399,sosnogorsk,63.6023,53.8817,-10.44,93,97,4.62,RU,1706556735
400,kailua-kona,19.6406,-155.9956,26.95,80,40,7.2,US,1706556735
401,cururupu,-1.8283,-44.8683,28.17,74,100,2.3,BR,1706556736
402,kerikeri,-35.2268,173.9474,18.28,90,3,0.45,NZ,1706556736
403,merizo village,13.2658,144.6691,24.99,87,5,8.16,GU,1706556736
404,tonota,-21.4833,27.4833,24.97,48,93,3.69,BW,1706556736
405,grand falls-windsor,48.9332,-55.6649,-9.72,88,100,2.68,CA,1706556736
406,usogorsk,63.4106,48.6872,-4.63,94,100,4.87,RU,1706556736
407,borgarnes,64.5383,-21.9206,1.03,77,100,11.23,IS,1706556736
408,chililabombwe,-12.3648,27.8229,18.04,83,93,1.14,ZM,1706556736
409,saint-denis,48.9167,2.3333,11.88,82,0,2.57,FR,1706556737
410,tramandai,-29.9847,-50.1336,24.86,74,40,3.11,BR,1706556711
411,brotas,-22.2842,-48.1267,31.13,30,71,2.71,BR,1706556737
412,yemva,62.59,50.8594,-5.85,94,100,4.09,RU,1706556737
413,hanumangarh,29.5833,74.3167,13.1,34,71,2.04,IN,1706556737
414,kisangani,0.5167,25.2,27.04,42,100,0.86,CD,1706556737
415,i-n-salah,27.1935,2.4607,18.21,25,1,7.28,DZ,1706556737
416,nguigmi,14.2495,13.1092,21.65,24,6,6.31,NE,1706556737
417,katabu,-4.9333,122.5167,24.38,93,99,0.85,ID,1706556737
418,leua,48.2156,18.6071,2.5,82,16,1.45,SK,1706556738
419,madaoua,14.073,5.96,22.43,14,59,4.9,NE,1706556738
420,collie,-33.3667,116.15,11.09,86,0,3.11,AU,1706556738
421,fort st. john,56.2499,-120.8529,9.94,53,75,5.14,CA,1706556738
422,yuzhno-kurilsk,44.0306,145.8556,-2.57,83,79,1.56,RU,1706556738
423,ko pha ngan,9.7578,100.0291,24.91,75,58,6.74,TH,1706556738
424,watford city,47.8022,-103.2832,6.92,81,0,3.09,US,1706556738
425,kwaksan,39.6875,125.0828,-7.81,92,5,2.13,KP,1706556738
426,saraqib,35.8645,36.8059,6.61,84,100,6.29,SY,1706556738
427,boali,4.8005,18.1275,26.55,22,6,0.72,CF,1706556739
428,thompson,55.7435,-97.8558,-4.91,86,100,4.63,CA,1706556578
429,hirara,24.8,125.2833,20.15,73,75,6.17,JP,1706556739
430,canico,32.6333,-16.85,19.45,88,20,1.03,PT,1706556739
431,igrim,63.1906,64.4162,-19.12,99,54,2.57,RU,1706556739
432,alice springs,-23.7,133.8833,26.23,21,99,0.0,AU,1706556739
433,haiku-pauwela,20.9219,-156.3051,26.13,75,40,9.26,US,1706556739
434,polyarnyy,69.1989,33.4478,0.88,66,100,15.61,RU,1706556740
435,akhisar,38.9185,27.8401,3.05,84,51,6.41,TR,1706556740
436,stadthagen,52.3233,9.2031,7.63,77,100,2.54,DE,1706556671
437,irymple,-34.25,142.1667,20.05,69,0,0.45,AU,1706556740
438,sao jose dos pinhais,-25.5347,-49.2064,25.14,72,75,4.12,BR,1706556740
439,quebrangulo,-9.3189,-36.4711,29.7,48,9,8.43,BR,1706556740
440,den burg,53.0542,4.7972,8.32,89,100,4.12,NL,1706556740
441,ha'il,27.5219,41.6907,13.01,44,0,1.03,SA,1706556740
442,inarajan village,13.2736,144.7484,25.22,87,5,8.02,GU,1706556740
443,palangkaraya,-2.2,113.8333,23.62,97,95,0.23,ID,1706556741
444,ismailia,30.6043,32.2723,12.21,61,75,5.97,EG,1706556741
445,ginir,7.1333,40.7,17.41,60,92,0.54,ET,1706556741
446,faya-largeau,17.9257,19.1043,19.02,26,0,9.26,TD,1706556741
447,spanish springs,39.6491,-119.7074,15.94,57,0,2.57,US,1706556741
448,margate,51.3813,1.3862,11.04,84,100,4.02,GB,1706556741
449,salta,-24.7859,-65.4117,30.88,55,40,2.57,AR,1706556742
450,mwingi,-0.9344,38.0601,22.92,58,100,0.95,KE,1706556742
451,yatou,37.15,122.3833,0.25,70,18,2.18,CN,1706556742
452,misratah,32.3754,15.0925,14.9,49,91,6.96,LY,1706556742
453,fantanele,46.1167,21.4,3.2,90,6,0.0,RO,1706556742
454,urzhar,47.093,81.6294,-12.29,83,100,1.69,KZ,1706556742
455,birjand,32.8663,59.2211,5.26,33,0,2.06,IR,1706556742
456,cockburn town,21.4612,-71.1419,25.68,75,0,6.15,TC,1706556670
457,lepsy,46.235,78.9456,-11.91,88,100,3.03,KZ,1706556743
458,moab,38.5733,-109.5498,11.38,52,0,0.97,US,1706556523
459,oranjemund,-28.55,16.4333,18.87,79,100,1.42,NA,1706556743
460,borogontsy,62.6683,131.1683,-45.93,100,83,0.58,RU,1706556743
461,st. john's,47.5649,-52.7093,-1.79,95,100,4.47,CA,1706556743
462,isla mujeres,21.2311,-86.731,25.09,65,71,7.34,MX,1706556743
463,las terrenas,19.311,-69.5428,28.93,74,20,2.06,DO,1706556744
464,kyabe,9.4515,18.9449,28.0,16,72,2.04,TD,1706556744
465,al bayda,32.7627,21.7551,6.81,70,100,6.64,LY,1706556744
466,shinas,24.7433,56.4658,23.14,41,100,3.47,OM,1706556744
467,linden,6.0,-58.3,30.35,55,96,1.79,GY,1706556744
468,singkil,-7.9855,111.4161,25.28,90,100,0.55,ID,1706556744
469,tangalle,6.024,80.7911,24.25,88,97,4.34,LK,1706556744
470,karachi,24.9056,67.0822,21.9,83,40,2.06,PK,1706556586
471,namibe,-15.1961,12.1522,23.48,73,9,5.95,AO,1706556745
472,cedeira,43.6797,-8.0209,12.99,70,81,1.99,ES,1706556745
473,langepas,61.2544,75.2124,-23.64,100,100,2.69,RU,1706556745
474,happy valley-goose bay,53.3168,-60.3315,-18.83,38,0,2.06,CA,1706556631
475,kuta,-8.7233,115.1723,26.97,88,20,0.51,ID,1706556665
476,portland,45.5234,-122.6762,16.78,73,75,2.24,US,1706556736
477,port douglas,-16.4833,145.4667,27.64,86,72,2.7,AU,1706556745
478,inari,68.906,27.0288,1.11,69,21,11.22,FI,1706556746
479,murghob,38.1702,73.9667,-14.14,59,0,4.98,TJ,1706556746
480,semey,50.4111,80.2275,-16.43,97,27,1.53,KZ,1706556746
481,kilju,40.9642,129.3278,-7.25,87,86,1.99,KP,1706556746
482,murzuq,25.9155,13.9184,12.22,49,0,5.57,LY,1706556746
483,mayfield,36.7417,-88.6367,5.96,80,4,2.32,US,1706556746
484,nuuk,64.1835,-51.7216,-16.66,60,40,8.23,GL,1706556670
485,bom jesus da lapa,-13.255,-43.4181,28.72,60,16,2.08,BR,1706556746
486,hwasun,35.0594,126.985,-2.09,78,8,1.25,KR,1706556747
487,kismayo,-0.3582,42.5454,26.76,85,100,6.83,SO,1706556747
488,gadzhiyevo,69.2551,33.3362,0.46,65,99,16.2,RU,1706556747
489,inirida,3.8653,-67.9239,32.05,51,99,1.02,CO,1706556747
490,priozersk,61.0393,30.1291,2.19,86,100,5.05,RU,1706556747
491,bardai,11.65,7.2333,21.1,16,85,4.3,NG,1706556747
492,hard bargain,26.3167,-77.5667,19.41,60,0,10.44,BS,1706556747
493,villa elisa,-25.3667,-57.6167,38.55,24,20,3.09,PY,1706556747
494,san clemente del tuyu,-36.3569,-56.7235,25.55,65,9,6.79,AR,1706556747
495,isabela,6.7085,121.9711,25.23,82,100,2.22,PH,1706556748
496,manismata,-2.4667,111.0333,23.28,98,100,0.26,ID,1706556748
497,toliara,-23.35,43.6667,25.91,80,70,1.65,MG,1706556748
498,dass,10.0,9.5167,22.68,20,4,1.08,NG,1706556748
499,zaozersk,69.4005,32.4476,-0.4,67,71,16.54,RU,1706556748
500,olyokminsk,60.3736,120.4264,-35.12,100,94,0.88,RU,1706556748
501,holualoa,19.6228,-155.9522,24.88,80,40,7.2,US,1706556749
502,san andres,12.5847,-81.7006,29.01,65,20,6.17,CO,1706556512
503,kerman,30.2832,57.0788,5.92,36,0,2.06,IR,1706556749
504,huedin,46.8667,23.05,-4.55,75,0,1.1,RO,1706556526
505,fort portal,0.6617,30.2748,21.14,48,100,1.12,UG,1706556749
506,menaka,15.9182,2.4022,24.02,12,1,4.7,ML,1706556749
507,antsiranana,-12.2787,49.2917,24.81,84,63,3.72,MG,1706556749
508,northam,51.0333,-4.2167,13.14,92,100,6.81,GB,1706556749
509,cafayate,-26.073,-65.9761,23.01,65,91,1.37,AR,1706556633
510,korhogo,9.45,-5.6333,26.61,15,12,1.91,CI,1706556750
511,ngerengere,-6.75,38.1167,23.86,93,94,1.82,TZ,1706556750
512,narrabri,-30.3167,149.7833,23.07,91,6,2.39,AU,1706556750
513,riosucio,5.4216,-75.7032,27.78,46,62,1.39,CO,1706556750
514,kayangel,8.0823,134.7173,27.07,85,100,10.14,PW,1706556750
515,ballina,-28.8667,153.5667,24.88,92,99,2.91,AU,1706556750
516,yuto,-23.6434,-64.4719,37.47,35,23,3.13,AR,1706556750
517,argostolion,38.1811,20.489,6.53,59,4,2.39,GR,1706556750
518,sandur,15.1,76.55,20.57,54,92,3.01,IN,1706556750
519,midland,31.9974,-102.0779,18.6,27,0,2.57,US,1706556659
520,saddiqabad,28.3062,70.1307,16.68,33,100,3.21,PK,1706556751
521,midleton,51.9153,-8.1805,4.51,84,89,5.04,IE,1706556751
522,betio village,1.358,172.9211,27.02,74,100,4.47,KI,1706556751
523,ascension,30.2169,-90.9001,18.33,43,0,3.6,US,1706556751
524,prieska,-29.6641,22.7474,30.47,11,98,8.11,ZA,1706556751
525,cozumel,20.5083,-86.9458,26.71,63,40,6.17,MX,1706556725
526,champerico,14.3,-91.9167,35.3,62,2,4.89,GT,1706556751
527,ingeniero guillermo n. juarez,-23.9,-61.85,37.86,22,93,1.28,AR,1706556751
528,verkhnevilyuysk,63.4453,120.3167,-37.01,99,81,1.65,RU,1706556752
529,minas de marcona,-15.2119,-75.1103,24.26,59,55,7.51,PE,1706556752
530,walvis bay,-22.9575,14.5053,25.53,53,13,7.2,NA,1706556752
531,grand-lahou,5.1367,-5.0242,26.9,83,8,4.4,CI,1706556752
532,kiunga,-6.1219,141.2906,23.54,99,100,0.98,PG,1706556752
533,cova figueira,14.8905,-24.2934,21.58,61,83,6.14,CV,1706556752
534,maryborough,-25.5333,152.7,26.17,99,100,2.13,AU,1706556752
535,sault ste. marie,46.5168,-84.3333,2.31,80,100,3.09,CA,1706556752
536,the pas,53.8251,-101.2541,3.01,87,100,4.63,CA,1706556753
537,urengoy,65.9667,78.3667,-24.27,98,54,3.85,RU,1706556753
538,kalmunai,7.4167,81.8167,25.2,87,85,3.19,LK,1706556753
539,dwarka,22.2394,68.9678,22.02,81,41,3.97,IN,1706556753
540,trairi,-3.2778,-39.2689,29.92,64,94,6.95,BR,1706556514
541,los alamos,35.8881,-106.307,11.43,41,75,2.06,US,1706556533
542,buala,-8.145,159.5921,26.36,86,100,3.85,SB,1706556753
543,mariental,-24.6333,17.9667,25.62,44,100,1.84,NA,1706556753
544,barguzin,53.6167,109.6167,-28.76,93,40,0.8,RU,1706556753
545,al bayda',32.7627,21.7551,6.81,70,100,6.64,LY,1706556753
546,sumbawa besar,-8.5,117.4333,23.83,92,100,1.34,ID,1706556754
547,constitucion,-35.3333,-72.4167,20.79,57,13,5.37,CL,1706556754
548,sikonge,-5.6333,32.7667,19.1,95,100,1.74,TZ,1706556754
549,balakhta,55.38,91.6,-21.82,99,100,0.5,RU,1706556754
550,tianchang,37.9981,114.0156,-1.57,61,100,1.04,CN,1706556754
551,zhangjiakou shi xuanhua qu,40.6103,115.0447,-9.68,85,68,0.74,CN,1706556754
552,inhambane,-23.865,35.3833,24.99,94,20,2.06,MZ,1706556754
553,ihosy,-22.4,46.1167,19.51,91,90,4.58,MG,1706556754
554,mizan teferi,6.9833,35.5833,19.08,75,97,1.42,ET,1706556755
555,guerrero negro,27.9769,-114.0611,23.69,29,56,3.26,MX,1706556755
556,tual,-5.6667,132.75,28.27,78,100,8.37,ID,1706556486
557,paracuru,-3.41,-39.0306,29.5,71,99,6.34,BR,1706556755
558,smithers,54.7804,-127.1743,9.18,66,20,4.12,CA,1706556755
559,paghman,34.5875,68.9533,-1.94,65,13,1.42,AF,1706556755
560,veraval,20.9,70.3667,21.22,82,44,4.95,IN,1706556755
561,mirny,62.5353,113.9611,-38.85,100,52,1.66,RU,1706556755
562,alibag,18.6411,72.8792,26.04,63,97,3.43,IN,1706556755
563,bel ombre,-4.6167,55.4167,27.91,78,20,1.03,SC,1706556756
564,as sulaymaniyah,35.5611,45.4375,4.24,87,75,1.03,IQ,1706556756
565,tshikapa,-6.4167,20.8,21.64,95,98,0.39,CD,1706556756
566,nyurba,63.2842,118.3319,-37.28,99,52,2.17,RU,1706556756
567,umm al quwain city,25.5647,55.5552,22.01,57,99,4.47,AE,1706556756
568,kutum,14.2,24.6667,16.29,22,100,3.65,SD,1706556756
569,cruzeiro do sul,-29.5128,-51.9853,31.4,54,5,1.9,BR,1706556756
570,falun,60.6036,15.626,2.23,93,100,0.49,SE,1706556756
571,eldorado,-23.7869,-54.2836,34.1,21,82,2.49,BR,1706556651
572,linares,-35.85,-71.6,36.05,14,5,3.07,CL,1706556506
573,as sulayyil,20.4607,45.5779,22.14,51,100,3.84,SA,1706556757
574,chernomorskoye,45.5039,32.6997,2.29,69,52,7.8,UA,1706556757
575,villa gesell,-37.2639,-56.973,26.7,61,14,9.97,AR,1706556757
576,kapa'a,22.0752,-159.319,24.18,86,40,7.2,US,1706556757
577,tuy hoa,13.0833,109.3,20.14,92,60,1.39,VN,1706556757
578,keflavik,64.0049,-22.5624,1.24,75,75,13.89,IS,1706556757
579,liwale,-9.7667,37.9333,21.26,98,100,0.88,TZ,1706556757
